$PTNL,AVR,102625.95,+0.0000,Yaw,+0.0000,Tilt,,,0.000,0,0.0,00*39
$GPGGA,102626.00,4006.23937334,N,11622.80624230,E,2,07,1.4,51.350,M,-9.630,M,5.0,0129*6B
$PTNL,VGK,102626.00,031118,00000.000,00000.000,00000.000,0,07,2.9,M*08
$PTNL,VHD,102626.00,031118,0.000,0.000,0.000,0.000,0.000,0.000,5,07,2.9,M*0F
$GPGSV,3,1,10,11,53,193,46,1,32,174,42,30,45,303,40,16,15,097,38*41
$GPGSV,3,2,10,8,72,025,48,27,31,051,43,7,66,270,47*4A
$GPGSV,3,3,10,40,13,251,,50,35,140,35,42,35,140,36*48
$PTNL,AVR,102626.00,+0.0000,Yaw,+0.0000,Tilt,,,0.000,0,0.0,00*36
$GPGSA,A,3,7,8,11,27,1,30,16,,,,,,2.9,1.4,2.5*04
$GPGGA,102626.05,4006.23937327,N,11622.80624223,E,2,07,1.4,51.350,M,-9.630,M,5.0,0129*6E
$PTNL,AVR,102626.05,+0.0000,Yaw,+0.0000,Tilt,,,0.000,0,0.0,00*33
$GPGGA,102626.10,4006.23937321,N,11622.80624215,E,2,07,1.4,51.350,M,-9.630,M,5.0,0129*69
$PTNL,AVR,102626.10,+0.0000,Yaw,+0.0000,Tilt,,,0.000,0,0.0,00*37
$GPGGA,102626.15,4006.23937315,N,11622.80624208,E,2,07,1.4,51.349,M,-9.630,M,5.0,0129*6F
$PTNL,AVR,102626.15,+0.0000,Yaw,+0.0000,Tilt,,,0.000,0,0.0,00*32
$GPGGA,102626.20,4006.23937309,N,11622.80624201,E,2,07,1.4,51.349,M,-9.630,M,5.2,0129*6F
$PTNL,AVR,102626.20,+0.0000,Yaw,+0.0000,Tilt,,,0.000,0,0.0,00*34
$GPGGA,102626.25,4006.23937303,N,11622.80624193,E,2,07,1.4,51.349,M,-9.630,M,5.2,0129*68
$PTNL,AVR,102626.25,+0.0000,Yaw,+0.0000,Tilt,,,0.000,0,0.0,00*31
$GPGGA,102626.30,4006.23937297,N,11622.80624186,E,2,07,1.4,51.349,M,-9.630,M,5.2,0129*64
$PTNL,AVR,102626.30,+0.0000,Yaw,+0.0000,Tilt,,,0.000,0,0.0,00*35
$GPGGA,102626.35,4006.23937291,N,11622.80624178,E,2,07,1.4,51.348,M,-9.630,M,5.2,0129*67
$PTNL,AVR,102626.35,+0.0000,Yaw,+0.0000,Tilt,,,0.000,0,0.0,00*30
$GPGGA,102626.40,4006.23937285,N,11622.80624171,E,2,07,1.4,51.348,M,-9.630,M,5.4,0129*6F
$PTNL,AVR,102626.40,+0.0000,Yaw,+0.0000,Tilt,,,0.000,0,0.0,00*32
$GPGGA,102626.45,4006.23937279,N,11622.80624164,E,2,07,1.4,51.348,M,-9.630,M,5.4,0129*6D
$PTNL,AVR,102626.45,+0.0000,Yaw,+0.0000,Tilt,,,0.000,0,0.0,00*37
$GPGGA,102626.50,4006.23937273,N,11622.80624156,E,2,07,1.4,51.348,M,-9.630,M,5.4,0129*62
$PTNL,AVR,102626.50,+0.0000,Yaw,+0.0000,Tilt,,,0.000,0,0.0,00*33
$GPGGA,102626.55,4006.23937267,N,11622.80624149,E,2,07,1.4,51.347,M,-9.630,M,5.4,0129*63
$PTNL,AVR,102626.55,+0.0000,Yaw,+0.0000,Tilt,,,0.000,0,0.0,00*36
$GPGGA,102626.60,4006.23937261,N,11622.80624142,E,2,07,1.4,51.347,M,-9.630,M,5.6,0129*6A
$PTNL,AVR,102626.60,+0.0000,Yaw,+0.0000,Tilt,,,0.000,0,0.0,00*30
$GPGGA,102626.65,4006.23937254,N,11622.80624135,E,2,07,1.4,51.347,M,-9.630,M,5.6,0129*69
$PTNL,AVR,102626.65,+0.0000,Yaw,+0.0000,Tilt,,,0.000,0,0.0,00*35
$GPGGA,102626.70,4006.23937248,N,11622.80624128,E,2,07,1.4,51.347,M,-9.630,M,5.6,0129*6C
$PTNL,AVR,102626.70,+0.0000,Yaw,+0.0000,Tilt,,,0.000,0,0.0,00*31
$GPGGA,102626.75,4006.23937242,N,11622.80624121,E,2,07,1.4,51.346,M,-9.630,M,5.6,0129*6B
$PTNL,AVR,102626.75,+0.0000,Yaw,+0.0000,Tilt,,,0.000,0,0.0,00*34
$GPGGA,102626.80,4006.23937236,N,11622.80624114,E,2,07,1.4,51.346,M,-9.630,M,5.8,0129*6A
$PTNL,AVR,102626.80,+0.0000,Yaw,+0.0000,Tilt,,,0.000,0,0.0,00*3E
$GPGGA,102626.85,4006.23937231,N,11622.80624107,E,2,07,1.4,51.346,M,-9.630,M,5.8,0129*6A
$PTNL,AVR,102626.85,+0.0000,Yaw,+0.0000,Tilt,,,0.000,0,0.0,00*3B
$GPGGA,102626.90,4006.23937225,N,11622.80624100,E,2,07,1.4,51.346,M,-9.630,M,5.8,0129*6C
$PTNL,AVR,102626.90,+0.0000,Yaw,+0.0000,Tilt,,,0.000,0,0.0,00*3F
$GPGGA,102626.95,4006.23937219,N,11622.80624093,E,2,07,1.4,51.346,M,-9.630,M,5.8,0129*6D
$PTNL,AVR,102626.95,+0.0000,Yaw,+0.0000,Tilt,,,0.000,0,0.0,00*3A
$GPGGA,102627.00,4006.23937214,N,11622.80624086,E,2,07,1.4,51.345,M,-9.630,M,6.0,0129*61
$PTNL,VGK,102627.00,031118,00000.000,00000.000,00000.000,0,07,2.9,M*09
$PTNL,VHD,102627.00,031118,0.000,0.000,0.000,0.000,0.000,0.000,5,07,2.9,M*0E
$GPGSV,3,1,10,11,53,193,41,1,32,174,40,30,45,303,40,16,15,097,38*44
$GPGSV,3,2,10,8,72,025,48,27,31,051,43,7,66,270,48*45
$GPGSV,3,3,10,40,13,251,,50,35,140,35,42,35,140,37*49
$PTNL,AVR,102627.00,+0.0000,Yaw,+0.0000,Tilt,,,0.000,0,0.0,00*37
$GPGSA,A,3,7,8,11,27,1,30,16,,,,,,2.9,1.4,2.5*04
$GPGGA,102627.05,4006.23937208,N,11622.80624079,E,2,07,1.4,51.345,M,-9.630,M,6.0,0129*69
$PTNL,AVR,102627.05,+0.0000,Yaw,+0.0000,Tilt,,,0.000,0,0.0,00*32
$GPGGA,102627.10,4006.23937203,N,11622.80624073,E,2,07,1.4,51.345,M,-9.630,M,6.0,0129*6C
$PTNL,AVR,102627.10,+0.0000,Yaw,+0.0000,Tilt,,,0.000,0,0.0,00*36
$GPGGA,102627.15,4006.23937197,N,11622.80624066,E,2,07,1.4,51.345,M,-9.630,M,6.0,0129*63
$PTNL,AVR,102627.15,+0.0000,Yaw,+0.0000,Tilt,,,0.000,0,0.0,00*33
$GPGGA,102627.20,4006.23937192,N,11622.80624060,E,2,07,1.4,51.344,M,-9.630,M,6.2,0129*65
$PTNL,AVR,102627.20,+0.0000,Yaw,+0.0000,Tilt,,,0.000,0,0.0,00*35
$GPGGA,102627.25,4006.23937186,N,11622.80624053,E,2,07,1.4,51.344,M,-9.630,M,6.2,0129*65
$PTNL,AVR,102627.25,+0.0000,Yaw,+0.0000,Tilt,,,0.000,0,0.0,00*30
$GPGGA,102627.30,4006.23937181,N,11622.80624047,E,2,07,1.4,51.344,M,-9.630,M,6.2,0129*63
$PTNL,AVR,102627.30,+0.0000,Yaw,+0.0000,Tilt,,,0.000,0,0.0,00*34
$GPGGA,102627.35,4006.23937176,N,11622.80624040,E,2,07,1.4,51.344,M,-9.630,M,6.2,0129*69
$PTNL,AVR,102627.35,+0.0000,Yaw,+0.0000,Tilt,,,0.000,0,0.0,00*31
$GPGGA,102627.40,4006.23937170,N,11622.80624033,E,2,07,1.4,51.343,M,-9.630,M,6.4,0129*68
$PTNL,AVR,102627.40,+0.0000,Yaw,+0.0000,Tilt,,,0.000,0,0.0,00*33
$GPGGA,102627.45,4006.23937165,N,11622.80624027,E,2,07,1.4,51.343,M,-9.630,M,6.4,0129*6C
$PTNL,AVR,102627.45,+0.0000,Yaw,+0.0000,Tilt,,,0.000,0,0.0,00*36
$GPGGA,102627.50,4006.23937159,N,11622.80624020,E,2,07,1.4,51.343,M,-9.630,M,6.4,0129*60
$PTNL,AVR,102627.50,+0.0000,Yaw,+0.0000,Tilt,,,0.000,0,0.0,00*32
$GPGGA,102627.55,4006.23937154,N,11622.80624013,E,2,07,1.4,51.343,M,-9.630,M,6.4,0129*68
$PTNL,AVR,102627.55,+0.0000,Yaw,+0.0000,Tilt,,,0.000,0,0.0,00*37
$GPGGA,102627.60,4006.23937149,N,11622.80624007,E,2,07,1.4,51.343,M,-9.630,M,6.6,0129*65
$PTNL,AVR,102627.60,+0.0000,Yaw,+0.0000,Tilt,,,0.000,0,0.0,00*31
$GPGGA,102627.65,4006.23937145,N,11622.80624000,E,2,07,1.4,51.342,M,-9.630,M,6.6,0129*6A
$PTNL,AVR,102627.65,+0.0000,Yaw,+0.0000,Tilt,,,0.000,0,0.0,00*34
$GPGGA,102627.70,4006.23937141,N,11622.80623992,E,2,07,1.4,51.342,M,-9.630,M,6.6,0129*6F
$PTNL,AVR,102627.70,+0.0000,Yaw,+0.0000,Tilt,,,0.000,0,0.0,00*30
$GPGGA,102627.75,4006.23937137,N,11622.80623985,E,2,07,1.4,51.342,M,-9.630,M,6.6,0129*6D
$PTNL,AVR,102627.75,+0.0000,Yaw,+0.0000,Tilt,,,0.000,0,0.0,00*35
$GPGGA,102627.80,4006.23937132,N,11622.80623978,E,2,07,1.4,51.342,M,-9.630,M,6.8,0129*6E
$PTNL,AVR,102627.80,+0.0000,Yaw,+0.0000,Tilt,,,0.000,0,0.0,00*3F
$GPGGA,102627.85,4006.23937127,N,11622.80623970,E,2,07,1.4,51.342,M,-9.630,M,6.8,0129*67
$PTNL,AVR,102627.85,+0.0000,Yaw,+0.0000,Tilt,,,0.000,0,0.0,00*3A
$GPGGA,102627.90,4006.23937122,N,11622.80623963,E,2,07,1.4,51.341,M,-9.630,M,6.8,0129*67
$PTNL,AVR,102627.90,+0.0000,Yaw,+0.0000,Tilt,,,0.000,0,0.0,00*3E
$GPGGA,102627.95,4006.23937117,N,11622.80623956,E,2,07,1.4,51.341,M,-9.630,M,6.8,0129*62
$PTNL,AVR,102627.95,+0.0000,Yaw,+0.0000,Tilt,,,0.000,0,0.0,00*3B
$GPGGA,102628.00,4006.23937113,N,11622.80623949,E,2,07,1.4,51.341,M,-9.630,M,7.0,0129*62
$PTNL,VGK,102628.00,031118,00000.000,00000.000,00000.000,0,07,2.9,M*06
$PTNL,VHD,102628.00,031118,0.000,0.000,0.000,0.000,0.000,0.000,5,07,2.9,M*01
$GPGSV,3,1,10,11,53,193,44,1,32,174,38,30,45,303,42,16,15,097,38*4C
$GPGSV,3,2,10,8,72,025,49,27,31,051,41,7,66,270,48*46
$GPGSV,3,3,10,40,13,251,,50,35,140,36,42,35,140,35*48
$PTNL,AVR,102628.00,+0.0000,Yaw,+0.0000,Tilt,,,0.000,0,0.0,00*38
$GPGSA,A,3,7,8,11,27,1,30,16,,,,,,2.9,1.4,2.5*04
$GPGGA,102628.05,4006.23937108,N,11622.80623942,E,2,07,1.4,51.341,M,-9.630,M,7.0,0129*66
$PTNL,AVR,102628.05,+0.0000,Yaw,+0.0000,Tilt,,,0.000,0,0.0,00*3D
$GPGGA,102628.10,4006.23937103,N,11622.80623935,E,2,07,1.4,51.341,M,-9.630,M,7.0,0129*69
$PTNL,AVR,102628.10,+0.0000,Yaw,+0.0000,Tilt,,,0.000,0,0.0,00*39
$GPGGA,102628.15,4006.23937097,N,11622.80623929,E,2,07,1.4,51.340,M,-9.630,M,7.0,0129*6C
$PTNL,AVR,102628.15,+0.0000,Yaw,+0.0000,Tilt,,,0.000,0,0.0,00*3C
$GPGGA,102628.20,4006.23937092,N,11622.80623922,E,2,07,1.4,51.340,M,-9.630,M,7.2,0129*66
$PTNL,AVR,102628.20,+0.0000,Yaw,+0.0000,Tilt,,,0.000,0,0.0,00*3A
$GPGGA,102628.25,4006.23937087,N,11622.80623915,E,2,07,1.4,51.340,M,-9.630,M,7.2,0129*63
$PTNL,AVR,102628.25,+0.0000,Yaw,+0.0000,Tilt,,,0.000,0,0.0,00*3F
$GPGGA,102628.30,4006.23937082,N,11622.80623908,E,2,07,1.4,51.340,M,-9.630,M,7.2,0129*6E
$PTNL,AVR,102628.30,+0.0000,Yaw,+0.0000,Tilt,,,0.000,0,0.0,00*3B
$GPGGA,102628.35,4006.23937077,N,11622.80623901,E,2,07,1.4,51.339,M,-9.630,M,7.2,0129*66
$PTNL,AVR,102628.35,+0.0000,Yaw,+0.0000,Tilt,,,0.000,0,0.0,00*3E
$GPGGA,102628.40,4006.23937072,N,11622.80623895,E,2,07,1.4,51.339,M,-9.630,M,6.4,0129*6A
$PTNL,AVR,102628.40,+0.0000,Yaw,+0.0000,Tilt,,,0.000,0,0.0,00*3C
$GPGGA,102628.45,4006.23937067,N,11622.80623888,E,2,07,1.4,51.339,M,-9.630,M,6.4,0129*67
$PTNL,AVR,102628.45,+0.0000,Yaw,+0.0000,Tilt,,,0.000,0,0.0,00*39
$GPGGA,102628.50,4006.23937062,N,11622.80623881,E,2,07,1.4,51.339,M,-9.630,M,6.4,0129*6F
$PTNL,AVR,102628.50,+0.0000,Yaw,+0.0000,Tilt,,,0.000,0,0.0,00*3D
$GPGGA,102628.55,4006.23937056,N,11622.80623873,E,2,07,1.4,51.339,M,-9.630,M,6.4,0129*60
$PTNL,AVR,102628.55,+0.0000,Yaw,+0.0000,Tilt,,,0.000,0,0.0,00*38
$GPGGA,102628.60,4006.23937051,N,11622.80623866,E,2,07,1.4,51.339,M,-9.630,M,6.6,0129*67
$PTNL,AVR,102628.60,+0.0000,Yaw,+0.0000,Tilt,,,0.000,0,0.0,00*3E
$GPGGA,102628.65,4006.23937046,N,11622.80623858,E,2,07,1.4,51.338,M,-9.630,M,6.6,0129*68
$PTNL,AVR,102628.65,+0.0000,Yaw,+0.0000,Tilt,,,0.000,0,0.0,00*3B
$GPGGA,102628.70,4006.23937041,N,11622.80623849,E,2,07,1.4,51.338,M,-9.630,M,6.6,0129*6B
$PTNL,AVR,102628.70,+0.0000,Yaw,+0.0000,Tilt,,,0.000,0,0.0,00*3F
$GPGGA,102628.75,4006.23937036,N,11622.80623839,E,2,07,1.4,51.338,M,-9.630,M,6.6,0129*69
$PTNL,AVR,102628.75,+0.0000,Yaw,+0.0000,Tilt,,,0.000,0,0.0,00*3A
$GPGGA,102628.80,4006.23937030,N,11622.80623829,E,2,07,1.4,51.338,M,-9.630,M,6.8,0129*6A
$PTNL,AVR,102628.80,+0.0000,Yaw,+0.0000,Tilt,,,0.000,0,0.0,00*30
$GPGGA,102628.85,4006.23937026,N,11622.80623817,E,2,07,1.4,51.338,M,-9.630,M,6.8,0129*65
$PTNL,AVR,102628.85,+0.0000,Yaw,+0.0000,Tilt,,,0.000,0,0.0,00*35
$GPGGA,102628.90,4006.23937021,N,11622.80623805,E,2,07,1.4,51.337,M,-9.630,M,6.8,0129*6A
$PTNL,AVR,102628.90,+0.0000,Yaw,+0.0000,Tilt,,,0.000,0,0.0,00*31
$GPGGA,102628.95,4006.23937017,N,11622.80623793,E,2,07,1.4,51.337,M,-9.630,M,6.8,0129*6A
$PTNL,AVR,102628.95,+0.0000,Yaw,+0.0000,Tilt,,,0.000,0,0.0,00*34
$GPGGA,102629.00,4006.23937012,N,11622.80623779,E,2,07,1.4,51.337,M,-9.630,M,7.0,0129*6F
$PTNL,VGK,102629.00,031118,00000.000,00000.000,00000.000,0,07,2.9,M*07
$PTNL,VHD,102629.00,031118,0.000,0.000,0.000,0.000,0.000,0.000,5,07,2.9,M*00
$GPGSV,3,1,10,11,53,193,43,1,32,174,38,30,45,303,41,16,15,097,37*47
$GPGSV,3,2,10,8,72,025,49,27,31,051,41,7,66,270,48*46
$GPGSV,3,3,10,40,13,251,,50,35,140,36,42,35,140,35*48
$PTNL,AVR,102629.00,+0.0000,Yaw,+0.0000,Tilt,,,0.000,0,0.0,00*39
$GPGSA,A,3,7,8,11,27,1,30,16,,,,,,2.9,1.4,2.5*04
$GPGGA,102629.05,4006.23937008,N,11622.80623765,E,2,07,1.4,51.337,M,-9.630,M,7.0,0129*6C
$PTNL,AVR,102629.05,+0.0000,Yaw,+0.0000,Tilt,,,0.000,0,0.0,00*3C
$GPGGA,102629.10,4006.23937004,N,11622.80623750,E,2,07,1.4,51.337,M,-9.630,M,7.0,0129*62
$PTNL,AVR,102629.10,+0.0000,Yaw,+0.0000,Tilt,,,0.000,0,0.0,00*38
$GPGGA,102629.15,4006.23937000,N,11622.80623735,E,2,07,1.4,51.336,M,-9.630,M,7.0,0129*61
$PTNL,AVR,102629.15,+0.0000,Yaw,+0.0000,Tilt,,,0.000,0,0.0,00*3D
$GPGGA,102629.20,4006.23936998,N,11622.80623719,E,2,07,1.4,51.336,M,-9.630,M,7.2,0129*62
$PTNL,AVR,102629.20,+0.0000,Yaw,+0.0000,Tilt,,,0.000,0,0.0,00*3B
$GPGGA,102629.25,4006.23936996,N,11622.80623703,E,2,07,1.4,51.336,M,-9.630,M,7.2,0129*62
$PTNL,AVR,102629.25,+0.0000,Yaw,+0.0000,Tilt,,,0.000,0,0.0,00*3E
$GPGGA,102629.30,4006.23936993,N,11622.80623687,E,2,07,1.4,51.336,M,-9.630,M,7.2,0129*6E
$PTNL,AVR,102629.30,+0.0000,Yaw,+0.0000,Tilt,,,0.000,0,0.0,00*3A
$GPGGA,102629.35,4006.23936991,N,11622.80623671,E,2,07,1.4,51.336,M,-9.630,M,7.2,0129*60
$PTNL,AVR,102629.35,+0.0000,Yaw,+0.0000,Tilt,,,0.000,0,0.0,00*3F
$GPGGA,102629.40,4006.23936991,N,11622.80623655,E,2,07,1.4,51.336,M,-9.630,M,6.4,0129*63
$PTNL,AVR,102629.40,+0.0000,Yaw,+0.0000,Tilt,,,0.000,0,0.0,00*3D
$GPGGA,102629.45,4006.23936990,N,11622.80623639,E,2,07,1.4,51.335,M,-9.630,M,6.4,0129*6E
$PTNL,AVR,102629.45,+0.0000,Yaw,+0.0000,Tilt,,,0.000,0,0.0,00*38
$GPGGA,102629.50,4006.23936990,N,11622.80623623,E,2,07,1.4,51.335,M,-9.630,M,6.4,0129*61
$PTNL,AVR,102629.50,+0.0000,Yaw,+0.0000,Tilt,,,0.000,0,0.0,00*3C
$GPGGA,102629.55,4006.23936989,N,11622.80623607,E,2,07,1.4,51.335,M,-9.630,M,6.4,0129*6A
$PTNL,AVR,102629.55,+0.0000,Yaw,+0.0000,Tilt,,,0.000,0,0.0,00*39
$GPGGA,102629.60,4006.23936988,N,11622.80623592,E,2,07,1.4,51.335,M,-9.630,M,6.6,0129*60
$PTNL,AVR,102629.60,+0.0000,Yaw,+0.0000,Tilt,,,0.000,0,0.0,00*3F
$GPGGA,102629.65,4006.23936988,N,11622.80623576,E,2,07,1.4,51.335,M,-9.630,M,6.6,0129*6F
$PTNL,AVR,102629.65,+0.0000,Yaw,+0.0000,Tilt,,,0.000,0,0.0,00*3A
$GPGGA,102629.70,4006.23936987,N,11622.80623561,E,2,07,1.4,51.334,M,-9.630,M,6.6,0129*63
$PTNL,AVR,102629.70,+0.0000,Yaw,+0.0000,Tilt,,,0.000,0,0.0,00*3E
$GPGGA,102629.75,4006.23936986,N,11622.80623546,E,2,07,1.4,51.334,M,-9.630,M,6.6,0129*62
$PTNL,AVR,102629.75,+0.0000,Yaw,+0.0000,Tilt,,,0.000,0,0.0,00*3B
$GPGGA,102629.80,4006.23936984,N,11622.80623531,E,2,07,1.4,51.334,M,-9.630,M,6.8,0129*64
$PTNL,AVR,102629.80,+0.0000,Yaw,+0.0000,Tilt,,,0.000,0,0.0,00*31
$GPGGA,102629.85,4006.23936983,N,11622.80623516,E,2,07,1.4,51.334,M,-9.630,M,6.8,0129*63
$PTNL,AVR,102629.85,+0.0000,Yaw,+0.0000,Tilt,,,0.000,0,0.0,00*34
$GPGGA,102629.90,4006.23936981,N,11622.80623501,E,2,07,1.4,51.334,M,-9.630,M,6.8,0129*63
$PTNL,AVR,102629.90,+0.0000,Yaw,+0.0000,Tilt,,,0.000,0,0.0,00*30
$GPGGA,102629.95,4006.23936979,N,11622.80623485,E,2,07,1.4,51.333,M,-9.630,M,6.8,0129*6B
$PTNL,AVR,102629.95,+0.0000,Yaw,+0.0000,Tilt,,,0.000,0,0.0,00*35
$GPGGA,102630.00,4006.23936978,N,11622.80623470,E,2,07,1.4,51.333,M,-9.630,M,7.0,0129*6D
$PTNL,VGK,102630.00,031118,00000.000,00000.000,00000.000,0,07,2.9,M*0F
$PTNL,VHD,102630.00,031118,0.000,0.000,0.000,0.000,0.000,0.000,5,07,2.9,M*08
$GPGSV,3,1,10,11,53,193,42,1,32,174,37,30,45,303,40,16,15,097,39*46
$GPGSV,3,2,10,8,72,025,49,27,31,051,43,7,66,270,48*44
$GPGSV,3,3,10,40,13,251,,50,35,140,35,42,35,140,34*4A
$PTNL,AVR,102630.00,+0.0000,Yaw,+0.0000,Tilt,,,0.000,0,0.0,00*31
$GPGSA,A,3,7,8,11,27,1,30,16,,,,,,2.9,1.4,2.5*04
$GPGGA,102630.05,4006.23936976,N,11622.80623454,E,2,07,1.4,51.333,M,-9.630,M,7.0,0129*60
$PTNL,AVR,102630.05,+0.0000,Yaw,+0.0000,Tilt,,,0.000,0,0.0,00*34
$GPGGA,102630.10,4006.23936974,N,11622.80623439,E,2,07,1.4,51.333,M,-9.630,M,7.0,0129*6D
$PTNL,AVR,102630.10,+0.0000,Yaw,+0.0000,Tilt,,,0.000,0,0.0,00*30
$GPGGA,102630.15,4006.23936972,N,11622.80623423,E,2,07,1.4,51.333,M,-9.630,M,7.0,0129*65
$PTNL,AVR,102630.15,+0.0000,Yaw,+0.0000,Tilt,,,0.000,0,0.0,00*35
$GPGGA,102630.20,4006.23936970,N,11622.80623408,E,2,07,1.4,51.332,M,-9.630,M,7.2,0129*6B
$PTNL,AVR,102630.20,+0.0000,Yaw,+0.0000,Tilt,,,0.000,0,0.0,00*33
$GPGGA,102630.25,4006.23936968,N,11622.80623392,E,2,07,1.4,51.332,M,-9.630,M,7.2,0129*63
$PTNL,AVR,102630.25,+0.0000,Yaw,+0.0000,Tilt,,,0.000,0,0.0,00*36
$GPGGA,102630.30,4006.23936966,N,11622.80623376,E,2,07,1.4,51.332,M,-9.630,M,7.2,0129*63
$PTNL,AVR,102630.30,+0.0000,Yaw,+0.0000,Tilt,,,0.000,0,0.0,00*32
$GPGGA,102630.35,4006.23936964,N,11622.80623361,E,2,07,1.4,51.332,M,-9.630,M,7.2,0129*62
$PTNL,AVR,102630.35,+0.0000,Yaw,+0.0000,Tilt,,,0.000,0,0.0,00*37
$GPGGA,102630.40,4006.23936962,N,11622.80623346,E,2,07,1.4,51.332,M,-9.630,M,3.4,0129*61
$PTNL,AVR,102630.40,+0.0000,Yaw,+0.0000,Tilt,,,0.000,0,0.0,00*35
$GPGGA,102630.45,4006.23936960,N,11622.80623330,E,2,07,1.4,51.331,M,-9.630,M,3.4,0129*64
$PTNL,AVR,102630.45,+0.0000,Yaw,+0.0000,Tilt,,,0.000,0,0.0,00*30
$GPGGA,102630.50,4006.23936958,N,11622.80623315,E,2,07,1.4,51.331,M,-9.630,M,3.4,0129*6C
$PTNL,AVR,102630.50,+0.0000,Yaw,+0.0000,Tilt,,,0.000,0,0.0,00*34
$GPGGA,102630.55,4006.23936956,N,11622.80623299,E,2,07,1.4,51.331,M,-9.630,M,3.4,0129*62
$PTNL,AVR,102630.55,+0.0000,Yaw,+0.0000,Tilt,,,0.000,0,0.0,00*31
$GPGGA,102630.60,4006.23936954,N,11622.80623284,E,2,07,1.4,51.331,M,-9.630,M,3.6,0129*68
$PTNL,AVR,102630.60,+0.0000,Yaw,+0.0000,Tilt,,,0.000,0,0.0,00*37
$GPGGA,102630.65,4006.23936952,N,11622.80623269,E,2,07,1.4,51.331,M,-9.630,M,3.6,0129*68
$PTNL,AVR,102630.65,+0.0000,Yaw,+0.0000,Tilt,,,0.000,0,0.0,00*32
$GPGGA,102630.70,4006.23936949,N,11622.80623254,E,2,07,1.4,51.330,M,-9.630,M,3.6,0129*69
$PTNL,AVR,102630.70,+0.0000,Yaw,+0.0000,Tilt,,,0.000,0,0.0,00*36
$GPGGA,102630.75,4006.23936947,N,11622.80623239,E,2,07,1.4,51.330,M,-9.630,M,3.6,0129*69
$PTNL,AVR,102630.75,+0.0000,Yaw,+0.0000,Tilt,,,0.000,0,0.0,00*33
$GPGGA,102630.80,4006.23936945,N,11622.80623224,E,2,07,1.4,51.330,M,-9.630,M,3.8,0129*63
$PTNL,AVR,102630.80,+0.0000,Yaw,+0.0000,Tilt,,,0.000,0,0.0,00*39
$GPGGA,102630.85,4006.23936943,N,11622.80623210,E,2,07,1.4,51.330,M,-9.630,M,3.8,0129*67
$PTNL,AVR,102630.85,+0.0000,Yaw,+0.0000,Tilt,,,0.000,0,0.0,00*3C
$GPGGA,102630.90,4006.23936941,N,11622.80623196,E,2,07,1.4,51.330,M,-9.630,M,3.8,0129*6C
$PTNL,AVR,102630.90,+0.0000,Yaw,+0.0000,Tilt,,,0.000,0,0.0,00*38
$GPGGA,102630.95,4006.23936939,N,11622.80623181,E,2,07,1.4,51.329,M,-9.630,M,3.8,0129*68
$PTNL,AVR,102630.95,+0.0000,Yaw,+0.0000,Tilt,,,0.000,0,0.0,00*3D
$GPGGA,102631.00,4006.23936937,N,11622.80623167,E,2,07,1.4,51.329,M,-9.630,M,4.0,0129*6C
$PTNL,VGK,102631.00,031118,00000.000,00000.000,00000.000,0,07,2.9,M*0E
$PTNL,VHD,102631.00,031118,0.000,0.000,0.000,0.000,0.000,0.000,5,07,2.9,M*09
$GPGSV,3,1,10,11,53,193,43,1,32,174,43,30,45,303,41,16,15,097,38*44
$GPGSV,3,2,10,8,72,026,50,27,31,052,44,7,66,269,49*42
$GPGSV,3,3,10,40,13,251,,50,35,140,36,42,35,140,37*4A
$PTNL,AVR,102631.00,+0.0000,Yaw,+0.0000,Tilt,,,0.000,0,0.0,00*30
$GPGSA,A,3,7,8,11,27,1,30,16,,,,,,2.9,1.4,2.5*04
$GPGGA,102631.05,4006.23936935,N,11622.80623152,E,2,07,1.4,51.329,M,-9.630,M,4.0,0129*6D
$PTNL,AVR,102631.05,+0.0000,Yaw,+0.0000,Tilt,,,0.000,0,0.0,00*35
$GPGGA,102631.10,4006.23936933,N,11622.80623138,E,2,07,1.4,51.329,M,-9.630,M,4.0,0129*63
$PTNL,AVR,102631.10,+0.0000,Yaw,+0.0000,Tilt,,,0.000,0,0.0,00*31
$GPGGA,102631.15,4006.23936931,N,11622.80623124,E,2,07,1.4,51.329,M,-9.630,M,4.0,0129*69
$PTNL,AVR,102631.15,+0.0000,Yaw,+0.0000,Tilt,,,0.000,0,0.0,00*34
$GPGGA,102631.20,4006.23936928,N,11622.80623110,E,2,07,1.4,51.328,M,-9.630,M,4.2,0129*63
$PTNL,AVR,102631.20,+0.0000,Yaw,+0.0000,Tilt,,,0.000,0,0.0,00*32
$GPGGA,102631.25,4006.23936926,N,11622.80623096,E,2,07,1.4,51.328,M,-9.630,M,4.2,0129*67
$PTNL,AVR,102631.25,+0.0000,Yaw,+0.0000,Tilt,,,0.000,0,0.0,00*37
$GPGGA,102631.30,4006.23936924,N,11622.80623081,E,2,07,1.4,51.328,M,-9.630,M,4.2,0129*67
$PTNL,AVR,102631.30,+0.0000,Yaw,+0.0000,Tilt,,,0.000,0,0.0,00*33
$GPGGA,102631.35,4006.23936923,N,11622.80623067,E,2,07,1.4,51.328,M,-9.630,M,4.2,0129*6D
$PTNL,AVR,102631.35,+0.0000,Yaw,+0.0000,Tilt,,,0.000,0,0.0,00*36
$GPGGA,102631.40,4006.23936920,N,11622.80623052,E,2,07,1.4,51.328,M,-9.630,M,4.4,0129*6C
$PTNL,AVR,102631.40,+0.0000,Yaw,+0.0000,Tilt,,,0.000,0,0.0,00*34
$GPGGA,102631.45,4006.23936919,N,11622.80623038,E,2,07,1.4,51.327,M,-9.630,M,4.4,0129*60
$PTNL,AVR,102631.45,+0.0000,Yaw,+0.0000,Tilt,,,0.000,0,0.0,00*31
$GPGGA,102631.50,4006.23936917,N,11622.80623023,E,2,07,1.4,51.327,M,-9.630,M,4.4,0129*60
$PTNL,AVR,102631.50,+0.0000,Yaw,+0.0000,Tilt,,,0.000,0,0.0,00*35
$GPGGA,102631.55,4006.23936915,N,11622.80623009,E,2,07,1.4,51.327,M,-9.630,M,4.4,0129*6F
$PTNL,AVR,102631.55,+0.0000,Yaw,+0.0000,Tilt,,,0.000,0,0.0,00*30
$GPGGA,102631.60,4006.23936913,N,11622.80622994,E,2,07,1.4,51.327,M,-9.630,M,4.6,0129*61
$PTNL,AVR,102631.60,+0.0000,Yaw,+0.0000,Tilt,,,0.000,0,0.0,00*36
$GPGGA,102631.65,4006.23936910,N,11622.80622980,E,2,07,1.4,51.327,M,-9.630,M,4.6,0129*62
$PTNL,AVR,102631.65,+0.0000,Yaw,+0.0000,Tilt,,,0.000,0,0.0,00*33
$GPGGA,102631.70,4006.23936908,N,11622.80622966,E,2,07,1.4,51.326,M,-9.630,M,4.6,0129*66
$PTNL,AVR,102631.70,+0.0000,Yaw,+0.0000,Tilt,,,0.000,0,0.0,00*37
$GPGGA,102631.75,4006.23936906,N,11622.80622952,E,2,07,1.4,51.326,M,-9.630,M,4.6,0129*6A
$PTNL,AVR,102631.75,+0.0000,Yaw,+0.0000,Tilt,,,0.000,0,0.0,00*32
$GPGGA,102631.80,4006.23936903,N,11622.80622938,E,2,07,1.4,51.326,M,-9.630,M,4.8,0129*67
$PTNL,AVR,102631.80,+0.0000,Yaw,+0.0000,Tilt,,,0.000,0,0.0,00*38
$GPGGA,102631.85,4006.23936901,N,11622.80622924,E,2,07,1.4,51.326,M,-9.630,M,4.8,0129*6D
$PTNL,AVR,102631.85,+0.0000,Yaw,+0.0000,Tilt,,,0.000,0,0.0,00*3D
$GPGGA,102631.90,4006.23936898,N,11622.80622910,E,2,07,1.4,51.326,M,-9.630,M,4.8,0129*6F
$PTNL,AVR,102631.90,+0.0000,Yaw,+0.0000,Tilt,,,0.000,0,0.0,00*39
$GPGGA,102631.95,4006.23936896,N,11622.80622897,E,2,07,1.4,51.325,M,-9.630,M,4.8,0129*69
$PTNL,AVR,102631.95,+0.0000,Yaw,+0.0000,Tilt,,,0.000,0,0.0,00*3C
$GPGGA,102632.00,4006.23936893,N,11622.80622883,E,2,07,1.4,51.325,M,-9.630,M,5.0,0129*6F
$PTNL,VGK,102632.00,031118,00000.000,00000.000,00000.000,0,07,2.9,M*0D
$PTNL,VHD,102632.00,031118,0.000,0.000,0.000,0.000,0.000,0.000,5,07,2.9,M*0A
$GPGSV,3,1,10,11,53,193,42,1,32,174,41,30,45,303,40,16,15,097,35*4B
$GPGSV,3,2,10,8,72,026,49,27,31,052,43,7,66,269,49*4D
$GPGSV,3,3,10,40,13,251,,50,35,140,36,42,35,140,36*4B
$PTNL,AVR,102632.00,+0.0000,Yaw,+0.0000,Tilt,,,0.000,0,0.0,00*33
$GPGSA,A,3,7,8,11,27,1,30,16,,,,,,2.9,1.4,2.5*04
$GPGGA,102632.05,4006.23936891,N,11622.80622870,E,2,07,1.4,51.325,M,-9.630,M,5.0,0129*64
$PTNL,AVR,102632.05,+0.0000,Yaw,+0.0000,Tilt,,,0.000,0,0.0,00*36
$GPGGA,102632.10,4006.23936888,N,11622.80622856,E,2,07,1.4,51.325,M,-9.630,M,5.0,0129*6C
$PTNL,AVR,102632.10,+0.0000,Yaw,+0.0000,Tilt,,,0.000,0,0.0,00*32
$GPGGA,102632.15,4006.23936886,N,11622.80622843,E,2,07,1.4,51.325,M,-9.630,M,5.0,0129*63
$PTNL,AVR,102632.15,+0.0000,Yaw,+0.0000,Tilt,,,0.000,0,0.0,00*37
$GPGGA,102632.20,4006.23936883,N,11622.80622830,E,2,07,1.4,51.325,M,-9.630,M,5.2,0129*66
$PTNL,AVR,102632.20,+0.0000,Yaw,+0.0000,Tilt,,,0.000,0,0.0,00*31
$GPGGA,102632.25,4006.23936881,N,11622.80622816,E,2,07,1.4,51.324,M,-9.630,M,5.2,0129*64
$PTNL,AVR,102632.25,+0.0000,Yaw,+0.0000,Tilt,,,0.000,0,0.0,00*34
$GPGGA,102632.30,4006.23936878,N,11622.80622803,E,2,07,1.4,51.324,M,-9.630,M,5.2,0129*62
$PTNL,AVR,102632.30,+0.0000,Yaw,+0.0000,Tilt,,,0.000,0,0.0,00*30
$GPGGA,102632.35,4006.23936876,N,11622.80622790,E,2,07,1.4,51.324,M,-9.630,M,5.2,0129*6C
$PTNL,AVR,102632.35,+0.0000,Yaw,+0.0000,Tilt,,,0.000,0,0.0,00*35
$GPGGA,102632.40,4006.23936873,N,11622.80622778,E,2,07,1.4,51.324,M,-9.630,M,5.4,0129*6B
$PTNL,AVR,102632.40,+0.0000,Yaw,+0.0000,Tilt,,,0.000,0,0.0,00*37
$GPGGA,102632.45,4006.23936870,N,11622.80622765,E,2,07,1.4,51.324,M,-9.630,M,5.4,0129*61
$PTNL,AVR,102632.45,+0.0000,Yaw,+0.0000,Tilt,,,0.000,0,0.0,00*32
$GPGGA,102632.50,4006.23936867,N,11622.80622753,E,2,07,1.4,51.323,M,-9.630,M,5.4,0129*61
$PTNL,AVR,102632.50,+0.0000,Yaw,+0.0000,Tilt,,,0.000,0,0.0,00*36
$GPGGA,102632.55,4006.23936864,N,11622.80622740,E,2,07,1.4,51.323,M,-9.630,M,5.4,0129*65
$PTNL,AVR,102632.55,+0.0000,Yaw,+0.0000,Tilt,,,0.000,0,0.0,00*33
$GPGGA,102632.60,4006.23936861,N,11622.80622728,E,2,07,1.4,51.323,M,-9.630,M,5.6,0129*6A
$PTNL,AVR,102632.60,+0.0000,Yaw,+0.0000,Tilt,,,0.000,0,0.0,00*35
$GPGGA,102632.65,4006.23936858,N,11622.80622716,E,2,07,1.4,51.323,M,-9.630,M,5.6,0129*68
$PTNL,AVR,102632.65,+0.0000,Yaw,+0.0000,Tilt,,,0.000,0,0.0,00*30
$GPGGA,102632.70,4006.23936856,N,11622.80622704,E,2,07,1.4,51.323,M,-9.630,M,5.6,0129*61
$PTNL,AVR,102632.70,+0.0000,Yaw,+0.0000,Tilt,,,0.000,0,0.0,00*34
$GPGGA,102632.75,4006.23936853,N,11622.80622691,E,2,07,1.4,51.322,M,-9.630,M,5.6,0129*6D
$PTNL,AVR,102632.75,+0.0000,Yaw,+0.0000,Tilt,,,0.000,0,0.0,00*31
$GPGGA,102632.80,4006.23936850,N,11622.80622679,E,2,07,1.4,51.322,M,-9.630,M,5.8,0129*6C
$PTNL,AVR,102632.80,+0.0000,Yaw,+0.0000,Tilt,,,0.000,0,0.0,00*3B
$GPGGA,102632.85,4006.23936848,N,11622.80622666,E,2,07,1.4,51.322,M,-9.630,M,5.8,0129*6E
$PTNL,AVR,102632.85,+0.0000,Yaw,+0.0000,Tilt,,,0.000,0,0.0,00*3E
$GPGGA,102632.90,4006.23936845,N,11622.80622654,E,2,07,1.4,51.322,M,-9.630,M,5.8,0129*66
$PTNL,AVR,102632.90,+0.0000,Yaw,+0.0000,Tilt,,,0.000,0,0.0,00*3A
$GPGGA,102632.95,4006.23936842,N,11622.80622642,E,2,07,1.4,51.322,M,-9.630,M,5.8,0129*63
$PTNL,AVR,102632.95,+0.0000,Yaw,+0.0000,Tilt,,,0.000,0,0.0,00*3F
$GPGGA,102633.00,4006.23936841,N,11622.80622629,E,2,07,1.4,51.321,M,-9.630,M,6.0,0129*68
$PTNL,VGK,102633.00,031118,00000.000,00000.000,00000.000,0,07,2.9,M*0C
$PTNL,VHD,102633.00,031118,0.000,0.000,0.000,0.000,0.000,0.000,5,07,2.9,M*0B
$GPGSV,3,1,10,11,53,193,42,1,32,174,37,30,45,303,41,16,15,097,38*46
$GPGSV,3,2,10,8,72,026,50,27,31,052,44,7,66,269,49*42
$GPGSV,3,3,10,40,13,251,,50,35,140,35,42,35,140,35*4B
$PTNL,AVR,102633.00,+0.0000,Yaw,+0.0000,Tilt,,,0.000,0,0.0,00*32
$GPGSA,A,3,7,8,11,27,1,30,16,,,,,,2.9,1.4,2.5*04
$GPGGA,102633.05,4006.23936839,N,11622.80622617,E,2,07,1.4,51.321,M,-9.630,M,6.0,0129*6F
$PTNL,AVR,102633.05,+0.0000,Yaw,+0.0000,Tilt,,,0.000,0,0.0,00*37
$GPGGA,102633.10,4006.23936838,N,11622.80622604,E,2,07,1.4,51.321,M,-9.630,M,6.0,0129*68
$PTNL,AVR,102633.10,+0.0000,Yaw,+0.0000,Tilt,,,0.000,0,0.0,00*33
$GPGGA,102633.15,4006.23936837,N,11622.80622592,E,2,07,1.4,51.321,M,-9.630,M,6.0,0129*6E
$PTNL,AVR,102633.15,+0.0000,Yaw,+0.0000,Tilt,,,0.000,0,0.0,00*36
$GPGGA,102633.20,4006.23936837,N,11622.80622579,E,2,07,1.4,51.321,M,-9.630,M,6.2,0129*6F
$PTNL,AVR,102633.20,+0.0000,Yaw,+0.0000,Tilt,,,0.000,0,0.0,00*30
$GPGGA,102633.25,4006.23936836,N,11622.80622567,E,2,07,1.4,51.321,M,-9.630,M,6.2,0129*64
$PTNL,AVR,102633.25,+0.0000,Yaw,+0.0000,Tilt,,,0.000,0,0.0,00*35
$GPGGA,102633.30,4006.23936836,N,11622.80622555,E,2,07,1.4,51.320,M,-9.630,M,6.2,0129*60
$PTNL,AVR,102633.30,+0.0000,Yaw,+0.0000,Tilt,,,0.000,0,0.0,00*31
$GPGGA,102633.35,4006.23936836,N,11622.80622542,E,2,07,1.4,51.320,M,-9.630,M,6.2,0129*63
$PTNL,AVR,102633.35,+0.0000,Yaw,+0.0000,Tilt,,,0.000,0,0.0,00*34
$GPGGA,102633.40,4006.23936836,N,11622.80622530,E,2,07,1.4,51.320,M,-9.630,M,6.4,0129*62
$PTNL,AVR,102633.40,+0.0000,Yaw,+0.0000,Tilt,,,0.000,0,0.0,00*36
$GPGGA,102633.45,4006.23936836,N,11622.80622518,E,2,07,1.4,51.320,M,-9.630,M,6.4,0129*6D
$PTNL,AVR,102633.45,+0.0000,Yaw,+0.0000,Tilt,,,0.000,0,0.0,00*33
$GPGGA,102633.50,4006.23936836,N,11622.80622506,E,2,07,1.4,51.320,M,-9.630,M,6.4,0129*66
$PTNL,AVR,102633.50,+0.0000,Yaw,+0.0000,Tilt,,,0.000,0,0.0,00*37
$GPGGA,102633.55,4006.23936836,N,11622.80622493,E,2,07,1.4,51.319,M,-9.630,M,6.4,0129*64
$PTNL,AVR,102633.55,+0.0000,Yaw,+0.0000,Tilt,,,0.000,0,0.0,00*32
$GPGGA,102633.60,4006.23936836,N,11622.80622481,E,2,07,1.4,51.319,M,-9.630,M,6.6,0129*63
$PTNL,AVR,102633.60,+0.0000,Yaw,+0.0000,Tilt,,,0.000,0,0.0,00*34
$GPGGA,102633.65,4006.23936836,N,11622.80622469,E,2,07,1.4,51.319,M,-9.630,M,6.6,0129*60
$PTNL,AVR,102633.65,+0.0000,Yaw,+0.0000,Tilt,,,0.000,0,0.0,00*31
$GPGGA,102633.70,4006.23936836,N,11622.80622457,E,2,07,1.4,51.319,M,-9.630,M,6.6,0129*69
$PTNL,AVR,102633.70,+0.0000,Yaw,+0.0000,Tilt,,,0.000,0,0.0,00*35
$GPGGA,102633.75,4006.23936836,N,11622.80622445,E,2,07,1.4,51.319,M,-9.630,M,6.6,0129*6F
$PTNL,AVR,102633.75,+0.0000,Yaw,+0.0000,Tilt,,,0.000,0,0.0,00*30
$GPGGA,102633.80,4006.23936836,N,11622.80622433,E,2,07,1.4,51.318,M,-9.630,M,6.8,0129*6B
$PTNL,AVR,102633.80,+0.0000,Yaw,+0.0000,Tilt,,,0.000,0,0.0,00*3A
$GPGGA,102633.85,4006.23936836,N,11622.80622421,E,2,07,1.4,51.318,M,-9.630,M,6.8,0129*6D
$PTNL,AVR,102633.85,+0.0000,Yaw,+0.0000,Tilt,,,0.000,0,0.0,00*3F
$GPGGA,102633.90,4006.23936836,N,11622.80622408,E,2,07,1.4,51.318,M,-9.630,M,6.8,0129*62
$PTNL,AVR,102633.90,+0.0000,Yaw,+0.0000,Tilt,,,0.000,0,0.0,00*3B
$GPGGA,102633.95,4006.23936836,N,11622.80622397,E,2,07,1.4,51.318,M,-9.630,M,6.8,0129*66
$PTNL,AVR,102633.95,+0.0000,Yaw,+0.0000,Tilt,,,0.000,0,0.0,00*3E
$GPGGA,102634.00,4006.23936836,N,11622.80622385,E,2,07,1.4,51.318,M,-9.630,M,7.0,0129*67
$PTNL,VGK,102634.00,031118,00000.000,00000.000,00000.000,0,07,2.9,M*0B
$PTNL,VHD,102634.00,031118,0.000,0.000,0.000,0.000,0.000,0.000,5,07,2.9,M*0C
$GPGSV,3,1,10,11,53,193,41,1,32,174,34,30,45,303,40,16,15,097,38*47
$GPGSV,3,2,10,8,72,026,50,27,31,052,44,7,66,269,50*4A
$GPGSV,3,3,10,40,13,251,,50,35,140,33,42,35,140,34*4C
$PTNL,AVR,102634.00,+0.0000,Yaw,+0.0000,Tilt,,,0.000,0,0.0,00*35
$GPGSA,A,3,7,8,11,27,1,30,16,,,,,,2.9,1.4,2.5*04
$GPGGA,102634.05,4006.23936837,N,11622.80622373,E,2,07,1.4,51.317,M,-9.630,M,7.0,0129*65
$PTNL,AVR,102634.05,+0.0000,Yaw,+0.0000,Tilt,,,0.000,0,0.0,00*30
$GPGGA,102634.10,4006.23936837,N,11622.80622361,E,2,07,1.4,51.317,M,-9.630,M,7.0,0129*62
$PTNL,AVR,102634.10,+0.0000,Yaw,+0.0000,Tilt,,,0.000,0,0.0,00*34
$GPGGA,102634.15,4006.23936838,N,11622.80622349,E,2,07,1.4,51.317,M,-9.630,M,7.0,0129*62
$PTNL,AVR,102634.15,+0.0000,Yaw,+0.0000,Tilt,,,0.000,0,0.0,00*31
$GPGGA,102634.20,4006.23936839,N,11622.80622337,E,2,07,1.4,51.317,M,-9.630,M,7.2,0129*6E
$PTNL,AVR,102634.20,+0.0000,Yaw,+0.0000,Tilt,,,0.000,0,0.0,00*37
$GPGGA,102634.25,4006.23936839,N,11622.80622326,E,2,07,1.4,51.317,M,-9.630,M,7.2,0129*6B
$PTNL,AVR,102634.25,+0.0000,Yaw,+0.0000,Tilt,,,0.000,0,0.0,00*32
$GPGGA,102634.30,4006.23936839,N,11622.80622314,E,2,07,1.4,51.316,M,-9.630,M,7.2,0129*6F
$PTNL,AVR,102634.30,+0.0000,Yaw,+0.0000,Tilt,,,0.000,0,0.0,00*36
$GPGGA,102634.35,4006.23936839,N,11622.80622302,E,2,07,1.4,51.316,M,-9.630,M,7.2,0129*6D
$PTNL,AVR,102634.35,+0.0000,Yaw,+0.0000,Tilt,,,0.000,0,0.0,00*33
$GPGGA,102634.40,4006.23936840,N,11622.80622290,E,2,07,1.4,51.316,M,-9.630,M,6.4,0129*6C
$PTNL,AVR,102634.40,+0.0000,Yaw,+0.0000,Tilt,,,0.000,0,0.0,00*31
$GPGGA,102634.45,4006.23936840,N,11622.80622278,E,2,07,1.4,51.316,M,-9.630,M,6.4,0129*6F
$PTNL,AVR,102634.45,+0.0000,Yaw,+0.0000,Tilt,,,0.000,0,0.0,00*34
$GPGGA,102634.50,4006.23936841,N,11622.80622266,E,2,07,1.4,51.316,M,-9.630,M,6.4,0129*65
$PTNL,AVR,102634.50,+0.0000,Yaw,+0.0000,Tilt,,,0.000,0,0.0,00*30
$GPGGA,102634.55,4006.23936841,N,11622.80622255,E,2,07,1.4,51.315,M,-9.630,M,6.4,0129*63
$PTNL,AVR,102634.55,+0.0000,Yaw,+0.0000,Tilt,,,0.000,0,0.0,00*35
$GPGGA,102634.60,4006.23936842,N,11622.80622243,E,2,07,1.4,51.315,M,-9.630,M,6.6,0129*63
$PTNL,AVR,102634.60,+0.0000,Yaw,+0.0000,Tilt,,,0.000,0,0.0,00*33
$GPGGA,102634.65,4006.23936843,N,11622.80622232,E,2,07,1.4,51.315,M,-9.630,M,6.6,0129*61
$PTNL,AVR,102634.65,+0.0000,Yaw,+0.0000,Tilt,,,0.000,0,0.0,00*36
$GPGGA,102634.70,4006.23936844,N,11622.80622221,E,2,07,1.4,51.315,M,-9.630,M,6.6,0129*60
$PTNL,AVR,102634.70,+0.0000,Yaw,+0.0000,Tilt,,,0.000,0,0.0,00*32
$GPGGA,102634.75,4006.23936845,N,11622.80622210,E,2,07,1.4,51.314,M,-9.630,M,6.6,0129*67
$PTNL,AVR,102634.75,+0.0000,Yaw,+0.0000,Tilt,,,0.000,0,0.0,00*37
$GPGGA,102634.80,4006.23936846,N,11622.80622198,E,2,07,1.4,51.314,M,-9.630,M,6.8,0129*63
$PTNL,AVR,102634.80,+0.0000,Yaw,+0.0000,Tilt,,,0.000,0,0.0,00*3D
$GPGGA,102634.85,4006.23936847,N,11622.80622187,E,2,07,1.4,51.314,M,-9.630,M,6.8,0129*69
$PTNL,AVR,102634.85,+0.0000,Yaw,+0.0000,Tilt,,,0.000,0,0.0,00*38
$GPGGA,102634.90,4006.23936848,N,11622.80622176,E,2,07,1.4,51.314,M,-9.630,M,6.8,0129*6C
$PTNL,AVR,102634.90,+0.0000,Yaw,+0.0000,Tilt,,,0.000,0,0.0,00*3C
$GPGGA,102634.95,4006.23936849,N,11622.80622166,E,2,07,1.4,51.314,M,-9.630,M,6.8,0129*69
$PTNL,AVR,102634.95,+0.0000,Yaw,+0.0000,Tilt,,,0.000,0,0.0,00*39
$GPGGA,102635.00,4006.23936849,N,11622.80622155,E,2,07,1.4,51.313,M,-9.630,M,7.0,0129*6A
$PTNL,VGK,102635.00,031118,00000.000,00000.000,00000.000,0,07,2.9,M*0A
$PTNL,VHD,102635.00,031118,0.000,0.000,0.000,0.000,0.000,0.000,5,07,2.9,M*0D
$GPGSV,3,1,10,11,53,193,43,1,32,174,43,30,45,303,40,16,15,097,40*4A
$GPGSV,3,2,10,8,72,026,49,27,31,052,43,7,66,269,49*4D
$GPGSV,3,3,10,40,13,251,,50,35,140,31,42,35,140,32*48
$PTNL,AVR,102635.00,+0.0000,Yaw,+0.0000,Tilt,,,0.000,0,0.0,00*34
$GPGSA,A,3,7,8,11,27,1,30,16,,,,,,2.9,1.4,2.5*04
$GPGGA,102635.05,4006.23936850,N,11622.80622145,E,2,07,1.4,51.313,M,-9.630,M,7.0,0129*66
$PTNL,AVR,102635.05,+0.0000,Yaw,+0.0000,Tilt,,,0.000,0,0.0,00*31
$GPGGA,102635.10,4006.23936851,N,11622.80622134,E,2,07,1.4,51.313,M,-9.630,M,7.0,0129*65
$PTNL,AVR,102635.10,+0.0000,Yaw,+0.0000,Tilt,,,0.000,0,0.0,00*35
$GPGGA,102635.15,4006.23936851,N,11622.80622124,E,2,07,1.4,51.313,M,-9.630,M,7.0,0129*61
$PTNL,AVR,102635.15,+0.0000,Yaw,+0.0000,Tilt,,,0.000,0,0.0,00*30
$GPGGA,102635.20,4006.23936851,N,11622.80622114,E,2,07,1.4,51.313,M,-9.630,M,7.2,0129*66
$PTNL,AVR,102635.20,+0.0000,Yaw,+0.0000,Tilt,,,0.000,0,0.0,00*36
$GPGGA,102635.25,4006.23936851,N,11622.80622103,E,2,07,1.4,51.313,M,-9.630,M,7.2,0129*65
$PTNL,AVR,102635.25,+0.0000,Yaw,+0.0000,Tilt,,,0.000,0,0.0,00*33
$GPGGA,102635.30,4006.23936851,N,11622.80622093,E,2,07,1.4,51.312,M,-9.630,M,7.2,0129*68
$PTNL,AVR,102635.30,+0.0000,Yaw,+0.0000,Tilt,,,0.000,0,0.0,00*37
$GPGGA,102635.35,4006.23936851,N,11622.80622083,E,2,07,1.4,51.312,M,-9.630,M,7.2,0129*6C
$PTNL,AVR,102635.35,+0.0000,Yaw,+0.0000,Tilt,,,0.000,0,0.0,00*32
$GPGGA,102635.40,4006.23936852,N,11622.80622073,E,2,07,1.4,51.312,M,-9.630,M,6.4,0129*65
$PTNL,AVR,102635.40,+0.0000,Yaw,+0.0000,Tilt,,,0.000,0,0.0,00*30
$GPGGA,102635.45,4006.23936852,N,11622.80622062,E,2,07,1.4,51.312,M,-9.630,M,6.4,0129*60
$PTNL,AVR,102635.45,+0.0000,Yaw,+0.0000,Tilt,,,0.000,0,0.0,00*35
$GPGGA,102635.50,4006.23936852,N,11622.80622053,E,2,07,1.4,51.312,M,-9.630,M,6.4,0129*66
$PTNL,AVR,102635.50,+0.0000,Yaw,+0.0000,Tilt,,,0.000,0,0.0,00*31
$GPGGA,102635.55,4006.23936853,N,11622.80622043,E,2,07,1.4,51.311,M,-9.630,M,6.4,0129*60
$PTNL,AVR,102635.55,+0.0000,Yaw,+0.0000,Tilt,,,0.000,0,0.0,00*34
$GPGGA,102635.60,4006.23936853,N,11622.80622033,E,2,07,1.4,51.311,M,-9.630,M,6.6,0129*63
$PTNL,AVR,102635.60,+0.0000,Yaw,+0.0000,Tilt,,,0.000,0,0.0,00*32
$GPGGA,102635.65,4006.23936854,N,11622.80622023,E,2,07,1.4,51.311,M,-9.630,M,6.6,0129*60
$PTNL,AVR,102635.65,+0.0000,Yaw,+0.0000,Tilt,,,0.000,0,0.0,00*37
$GPGGA,102635.70,4006.23936854,N,11622.80622013,E,2,07,1.4,51.311,M,-9.630,M,6.6,0129*67
$PTNL,AVR,102635.70,+0.0000,Yaw,+0.0000,Tilt,,,0.000,0,0.0,00*33
$GPGGA,102635.75,4006.23936855,N,11622.80622004,E,2,07,1.4,51.311,M,-9.630,M,6.6,0129*65
$PTNL,AVR,102635.75,+0.0000,Yaw,+0.0000,Tilt,,,0.000,0,0.0,00*36
$GPGGA,102635.80,4006.23936856,N,11622.80621994,E,2,07,1.4,51.311,M,-9.630,M,6.8,0129*61
$PTNL,AVR,102635.80,+0.0000,Yaw,+0.0000,Tilt,,,0.000,0,0.0,00*3C
$GPGGA,102635.85,4006.23936856,N,11622.80621985,E,2,07,1.4,51.310,M,-9.630,M,6.8,0129*65
$PTNL,AVR,102635.85,+0.0000,Yaw,+0.0000,Tilt,,,0.000,0,0.0,00*39
$GPGGA,102635.90,4006.23936857,N,11622.80621976,E,2,07,1.4,51.310,M,-9.630,M,6.8,0129*6C
$PTNL,AVR,102635.90,+0.0000,Yaw,+0.0000,Tilt,,,0.000,0,0.0,00*3D
$GPGGA,102635.95,4006.23936857,N,11622.80621966,E,2,07,1.4,51.310,M,-9.630,M,6.8,0129*68
$PTNL,AVR,102635.95,+0.0000,Yaw,+0.0000,Tilt,,,0.000,0,0.0,00*38
$GPGGA,102636.00,4006.23936857,N,11622.80621957,E,2,07,1.4,51.310,M,-9.630,M,7.0,0129*6C
$PTNL,VGK,102636.00,031118,00000.000,00000.000,00000.000,0,07,2.9,M*09
$PTNL,VHD,102636.00,031118,0.000,0.000,0.000,0.000,0.000,0.000,5,07,2.9,M*0E
$GPGSV,3,1,10,11,53,193,43,1,32,174,42,30,45,303,40,16,15,097,26*4B
$GPGSV,3,2,10,8,72,026,48,27,31,052,43,7,66,269,48*4D
$GPGSV,3,3,10,40,13,251,,50,35,140,32,42,35,140,34*4D
$PTNL,AVR,102636.00,+0.0000,Yaw,+0.0000,Tilt,,,0.000,0,0.0,00*37
$GPGSA,A,3,7,8,11,27,1,30,16,,,,,,2.9,1.4,2.5*04
$GPGGA,102636.05,4006.23936857,N,11622.80621949,E,2,07,1.4,51.310,M,-9.630,M,7.0,0129*66
$PTNL,AVR,102636.05,+0.0000,Yaw,+0.0000,Tilt,,,0.000,0,0.0,00*32
$GPGGA,102636.10,4006.23936858,N,11622.80621940,E,2,07,1.4,51.310,M,-9.630,M,7.0,0129*64
$PTNL,AVR,102636.10,+0.0000,Yaw,+0.0000,Tilt,,,0.000,0,0.0,00*36
$GPGGA,102636.15,4006.23936858,N,11622.80621931,E,2,07,1.4,51.309,M,-9.630,M,7.0,0129*6F
$PTNL,AVR,102636.15,+0.0000,Yaw,+0.0000,Tilt,,,0.000,0,0.0,00*33
$GPGGA,102636.20,4006.23936859,N,11622.80621922,E,2,07,1.4,51.309,M,-9.630,M,7.2,0129*68
$PTNL,AVR,102636.20,+0.0000,Yaw,+0.0000,Tilt,,,0.000,0,0.0,00*35
$GPGGA,102636.25,4006.23936859,N,11622.80621914,E,2,07,1.4,51.309,M,-9.630,M,7.2,0129*68
$PTNL,AVR,102636.25,+0.0000,Yaw,+0.0000,Tilt,,,0.000,0,0.0,00*30
$GPGGA,102636.30,4006.23936860,N,11622.80621905,E,2,07,1.4,51.309,M,-9.630,M,7.2,0129*66
$PTNL,AVR,102636.30,+0.0000,Yaw,+0.0000,Tilt,,,0.000,0,0.0,00*34
$GPGGA,102636.35,4006.23936860,N,11622.80621897,E,2,07,1.4,51.309,M,-9.630,M,7.2,0129*69
$PTNL,AVR,102636.35,+0.0000,Yaw,+0.0000,Tilt,,,0.000,0,0.0,00*31
$GPGGA,102636.40,4006.23936862,N,11622.80621889,E,2,07,1.4,51.309,M,-9.630,M,3.4,0129*64
$PTNL,AVR,102636.40,+0.0000,Yaw,+0.0000,Tilt,,,0.000,0,0.0,00*33
$GPGGA,102636.45,4006.23936863,N,11622.80621881,E,2,07,1.4,51.308,M,-9.630,M,3.4,0129*69
$PTNL,AVR,102636.45,+0.0000,Yaw,+0.0000,Tilt,,,0.000,0,0.0,00*36
$GPGGA,102636.50,4006.23936864,N,11622.80621873,E,2,07,1.4,51.308,M,-9.630,M,3.4,0129*67
$PTNL,AVR,102636.50,+0.0000,Yaw,+0.0000,Tilt,,,0.000,0,0.0,00*32
$GPGGA,102636.55,4006.23936865,N,11622.80621864,E,2,07,1.4,51.308,M,-9.630,M,3.4,0129*65
$PTNL,AVR,102636.55,+0.0000,Yaw,+0.0000,Tilt,,,0.000,0,0.0,00*37
$GPGGA,102636.60,4006.23936866,N,11622.80621856,E,2,07,1.4,51.308,M,-9.630,M,3.6,0129*63
$PTNL,AVR,102636.60,+0.0000,Yaw,+0.0000,Tilt,,,0.000,0,0.0,00*31
$GPGGA,102636.65,4006.23936867,N,11622.80621849,E,2,07,1.4,51.308,M,-9.630,M,3.6,0129*69
$PTNL,AVR,102636.65,+0.0000,Yaw,+0.0000,Tilt,,,0.000,0,0.0,00*34
$GPGGA,102636.70,4006.23936868,N,11622.80621841,E,2,07,1.4,51.308,M,-9.630,M,3.6,0129*6A
$PTNL,AVR,102636.70,+0.0000,Yaw,+0.0000,Tilt,,,0.000,0,0.0,00*30
$GPGGA,102636.75,4006.23936869,N,11622.80621833,E,2,07,1.4,51.308,M,-9.630,M,3.6,0129*6B
$PTNL,AVR,102636.75,+0.0000,Yaw,+0.0000,Tilt,,,0.000,0,0.0,00*35

